City_ID,City,Lat,Lng,Max Temp,Humidity,Cloudiness,Wind Speed,Country,Date
0,port blair,11.6667,92.75,27.26,62,35,3.26,IN,1707362773
1,hermanus,-34.4187,19.2345,17.67,80,78,3.76,ZA,1707362773
2,codrington,-38.2667,141.9667,19.92,52,0,6.34,AU,1707362773
3,port-aux-francais,-49.35,70.2167,4.38,71,80,12.36,TF,1707362774
4,katsuura,35.1333,140.3,9.04,69,85,4.17,JP,1707362774
5,bekasi,-6.2349,106.9896,31.93,62,20,2.57,ID,1707362774
6,quepos,9.4236,-84.1652,25.31,74,71,2.37,CR,1707362605
7,visby,57.6409,18.296,-3.88,93,100,1.03,SE,1707362774
8,adamstown,-25.066,-130.1015,24.2,75,100,5.52,PN,1707362774
9,papatowai,-46.5619,169.4708,14.38,68,24,8.68,NZ,1707362775
10,ust-nera,64.5667,143.2,-26.2,96,100,1.03,RU,1707362775
11,blackmans bay,-43.0167,147.3167,24.74,55,0,0.45,AU,1707362775
12,sao tome,0.3365,6.7273,27.23,81,86,3.54,ST,1707362775
13,sorong,-0.8833,131.25,28.7,74,95,3.22,ID,1707362775
14,la passe,45.5549,-0.8967,11.66,89,100,5.22,FR,1707362775
15,ngama,11.7833,17.1667,17.38,22,5,3.95,TD,1707362776
16,sparti,37.0733,22.4297,11.64,71,88,1.59,GR,1707362776
17,minas de marcona,-15.2119,-75.1103,19.61,93,100,3.33,PE,1707362776
18,zhanaozen,43.3,52.8,4.93,93,73,4.8,KZ,1707362776
19,tiksi,71.6872,128.8694,-20.67,99,100,2.29,RU,1707362776
20,gourdon,44.75,1.5,9.38,96,100,1.88,FR,1707362777
21,olonkinbyen,70.9221,-8.7187,-2.83,56,91,5.75,SJ,1707362777
22,saipan,15.1355,145.701,29.39,54,0,7.2,MP,1707362777
23,laojunmiao,39.8333,97.7333,-4.28,39,58,3.31,CN,1707362777
24,port lincoln,-34.7333,135.8667,20.26,60,5,5.31,AU,1707362777
25,lautoka,-17.6167,177.4667,27.92,78,75,2.06,FJ,1707362778
26,ushuaia,-54.8,-68.3,7.81,76,75,3.6,AR,1707362778
27,freeport,40.6576,-73.5832,6.2,79,0,2.06,US,1707362778
28,acarau,-2.8856,-40.12,26.94,83,16,5.67,BR,1707362778
29,broken hill,-31.95,141.4333,29.83,25,44,7.06,AU,1707362778
30,linxia chengguanzhen,35.6003,103.2064,-2.33,66,13,0.63,CN,1707362779
31,zaozersk,69.4005,32.4476,-24.35,99,66,2.17,RU,1707362779
32,waitangi,-43.9535,-176.5597,19.34,85,100,2.33,NZ,1707362779
33,jinchang,38.4953,102.1739,-3.06,46,7,1.61,CN,1707362779
34,edinburgh of the seven seas,-37.0676,-12.3116,17.13,67,100,2.88,SH,1707362721
35,grytviken,-54.2811,-36.5092,9.36,64,100,5.27,GS,1707362780
36,port elizabeth,-33.918,25.5701,20.16,78,0,5.14,ZA,1707362544
37,uttarkashi,30.7333,78.45,8.64,25,0,2.69,IN,1707362780
38,okoneshnikovo,54.8377,75.0834,-9.87,93,18,5.85,RU,1707362780
39,san antonio de pale,-1.4014,5.6325,27.71,79,23,2.42,GQ,1707362780
40,keflavik,64.0049,-22.5624,-3.76,74,0,6.69,IS,1707362780
41,ribeira grande,38.5167,-28.7,16.54,87,50,8.94,PT,1707362781
42,manismata,-2.4667,111.0333,30.07,70,84,1.07,ID,1707362781
43,chernyshkovskiy,48.4219,42.2308,4.24,85,98,8.61,RU,1707362781
44,wagar,16.1525,36.2032,18.65,70,25,3.12,SD,1707362781
45,nar'yan-mar,67.6713,53.087,-17.16,96,100,5.81,RU,1707362781
46,yellowknife,62.456,-114.3525,-16.71,78,100,2.57,CA,1707362781
47,mandalgovi,45.7625,106.2708,-16.7,85,19,2.88,MN,1707362782
48,qaqortoq,60.7167,-46.0333,-6.83,78,100,2.12,GL,1707362782
49,hasaki,35.7333,140.8333,9.22,64,100,2.39,JP,1707362782
50,santo domingo,18.5001,-69.9886,24.46,84,75,0.89,DO,1707362569
51,lebu,-37.6167,-73.65,13.81,77,96,8.97,CL,1707362782
52,atherton,53.5237,-2.4935,3.27,82,100,2.24,GB,1707362782
53,badger,64.8,-147.5333,-15.91,81,40,1.54,US,1707362783
54,al burayqah,30.4062,19.5739,15.54,42,29,5.17,LY,1707362783
55,vilyuchinsk,52.9306,158.4028,-5.85,79,100,0.86,RU,1707362783
56,port macquarie,-31.4333,152.9167,24.38,71,100,6.78,AU,1707362783
57,puerto deseado,-47.7503,-65.8938,12.44,61,1,4.51,AR,1707362783
58,ciudad guayana,8.3533,-62.6528,27.51,83,96,2.68,VE,1707362783
59,santa isabel,-23.3156,-46.2214,19.61,96,65,1.17,BR,1707362784
60,sulak,43.2734,47.5146,8.96,57,22,3.41,RU,1707362784
61,port mathurin,-19.6833,63.4167,26.83,78,82,8.82,MU,1707362784
62,zhalantun,48.0,122.7167,-10.05,69,42,2.04,CN,1707362784
63,pecan plantation,32.3604,-97.6756,16.28,75,0,6.17,US,1707362785
64,kanaya,34.8167,138.1333,9.95,49,20,1.54,JP,1707362785
65,nova sintra,14.8667,-24.7167,21.22,74,0,4.67,CV,1707362785
66,meiktila,20.8667,95.8667,25.36,46,0,1.24,MM,1707362785
67,chonchi,-42.6128,-73.8092,10.73,96,38,0.9,CL,1707362785
68,east london,-33.0153,27.9116,20.52,60,0,4.63,ZA,1707362786
69,iqaluit,63.7506,-68.5145,-20.15,59,20,6.69,CA,1707362786
70,miyako,39.6367,141.9525,5.23,42,27,0.79,JP,1707362786
71,talnakh,69.4865,88.3972,-25.6,89,28,1.94,RU,1707362786
72,poronaysk,49.2167,143.1167,-12.68,75,95,0.46,RU,1707362786
73,ocean city,39.2776,-74.5746,2.77,85,2,0.77,US,1707362787
74,hithadhoo,-0.6,73.0833,27.48,77,92,3.77,MV,1707362787
75,ulsteinvik,62.3432,5.8487,-2.18,82,16,3.58,NO,1707362787
76,arraial do cabo,-22.9661,-42.0278,23.98,94,20,0.0,BR,1707362714
77,san patricio,28.017,-97.5169,20.97,81,92,5.73,US,1707362787
78,cumana,10.4635,-64.1775,25.78,88,33,1.04,VE,1707362787
79,hobyo,5.3505,48.5268,25.59,79,89,7.34,SO,1707362788
80,yanchep,-31.55,115.6833,37.23,20,0,2.82,AU,1707362788
81,uturoa,-16.7333,-151.4333,28.48,84,77,11.94,PF,1707362788
82,santana,-0.0583,-51.1817,27.1,89,0,2.57,BR,1707362760
83,sao vicente,-23.9631,-46.3919,27.1,26,11,1.08,BR,1707362788
84,tiquipaya,-17.3382,-66.2189,18.4,49,75,3.09,BO,1707362788
85,thompson,55.7435,-97.8558,-14.91,85,100,2.06,CA,1707362789
86,gowurdak,37.8124,66.0466,9.76,34,95,2.78,TM,1707362789
87,el porvenir,13.7617,-87.3458,21.63,38,6,3.15,HN,1707362789
88,lerwick,60.1545,-1.1494,1.0,58,53,7.33,GB,1707362789
89,fort mcmurray,56.7268,-111.381,-7.23,86,100,0.51,CA,1707362789
90,bilibino,68.0546,166.4372,-34.75,100,98,0.38,RU,1707362790
91,punta arenas,-53.15,-70.9167,9.06,66,0,13.38,CL,1707362790
92,coquimbo,-29.9533,-71.3436,18.85,88,100,2.06,CL,1707362597
93,yuzhno-kurilsk,44.0306,145.8556,-6.46,70,100,4.34,RU,1707362790
94,bethel,41.3712,-73.414,2.46,66,0,1.54,US,1707362790
95,avarua,-21.2078,-159.775,28.03,74,20,7.72,CK,1707362790
96,pickering,43.9001,-79.1329,1.21,94,100,1.03,CA,1707362561
97,college,64.8569,-147.8028,-15.86,74,40,1.54,US,1707362791
98,longyearbyen,78.2186,15.6401,-8.09,73,40,5.66,SJ,1707362791
99,adrar,20.5022,-10.0711,16.88,14,15,4.73,MR,1707362791
100,juneau,58.3019,-134.4197,-3.83,95,20,0.0,US,1707362791
101,mount isa,-20.7333,139.5,30.87,45,100,3.6,AU,1707362791
102,isafjordur,66.0755,-23.124,-8.14,73,1,1.63,IS,1707362791
103,puerto natales,-51.7236,-72.4875,8.07,83,78,5.94,CL,1707362792
104,sitka,57.0531,-135.33,1.94,75,40,2.06,US,1707362792
105,cidade velha,14.9167,-23.6167,23.26,46,0,6.69,CV,1707362792
106,vilyuysk,63.7553,121.6247,-35.56,99,74,1.34,RU,1707362792
107,puerto cabezas,14.0351,-83.3888,21.85,83,26,4.17,NI,1707362792
108,namdrik,5.5994,168.1028,27.98,73,78,9.5,MH,1707362792
109,kavieng,-2.5744,150.7967,26.63,87,100,12.98,PG,1707362793
110,champerico,14.3,-91.9167,26.41,64,99,1.39,GT,1707362793
111,lompoc,34.6391,-120.4579,10.99,76,100,8.75,US,1707362642
112,port alfred,-33.5906,26.891,16.21,90,7,1.34,ZA,1707362793
113,port angeles,48.1181,-123.4307,7.89,78,100,1.54,US,1707362793
114,loreto,22.2667,-101.9667,16.12,15,100,2.67,MX,1707362793
115,wellington,-41.2866,174.7756,22.81,64,20,6.17,NZ,1707362794
116,gao,16.6362,1.637,15.74,18,7,5.13,ML,1707362794
117,ribas do rio pardo,-20.4431,-53.7592,22.52,93,100,1.61,BR,1707362794
118,kapuskasing,49.4169,-82.4331,1.0,93,100,1.54,CA,1707362794
119,nouadhibou,20.931,-17.0347,20.99,43,86,5.14,MR,1707362794
120,north battleford,52.7834,-108.2847,-5.33,93,100,2.57,CA,1707362795
121,tara,56.8944,74.371,-9.91,94,46,4.08,RU,1707362795
122,kruisfontein,-34.0033,24.7314,18.27,78,4,3.83,ZA,1707362795
123,georgetown,5.4112,100.3354,30.96,69,20,4.12,MY,1707362795
124,boa vista,2.8197,-60.6733,28.99,61,20,2.57,BR,1707362703
125,ambon,-3.6954,128.1814,29.93,95,40,1.03,ID,1707362795
126,eibau,50.9833,14.6667,1.27,99,100,1.55,DE,1707362795
127,tyumentsevo,53.3224,81.498,-3.38,92,100,5.01,RU,1707362796
128,keren,15.7778,38.4581,16.14,75,60,1.51,ER,1707362796
129,valparaiso,-33.0393,-71.6273,21.38,72,100,2.06,CL,1707362518
130,damulog,7.4836,124.9431,28.81,69,78,0.35,PH,1707362796
131,namibe,-15.1961,12.1522,25.16,77,99,3.78,AO,1707362797
132,howrah,22.5892,88.3103,20.0,56,2,2.57,IN,1707362797
133,stanley,54.868,-1.6985,-1.79,95,0,0.0,GB,1707362797
134,bikenibeu village,1.3673,173.1241,30.98,74,75,6.17,KI,1707362797
135,acapulco de juarez,16.8634,-99.8901,25.9,78,0,2.06,MX,1707362797
136,calabazar de sagua,22.6447,-79.8961,18.26,94,75,1.03,CU,1707362797
137,chegdomyn,51.1167,133.0167,-17.64,87,99,0.77,RU,1707362797
138,hadibu,12.65,54.0333,24.98,69,100,5.4,YE,1707362798
139,shillington,40.3079,-75.9655,3.8,75,0,0.0,US,1707362690
140,narvik,68.4384,17.4272,-12.33,79,100,4.08,NO,1707362798
141,taro,-8.3862,115.28,26.03,57,22,0.96,ID,1707362798
142,atafu village,-8.5421,-172.5159,28.4,79,100,8.48,TK,1707362798
143,cuito,-12.3833,16.9333,15.01,92,100,1.19,AO,1707362799
144,deqen,29.9618,90.7188,0.88,12,0,3.2,CN,1707362552
145,corner brook,48.9667,-57.9484,-10.91,99,83,1.1,CA,1707362799
146,kapa'a,22.0752,-159.319,26.99,72,100,6.69,US,1707362799
147,caninde,-4.3589,-39.3117,24.13,87,69,0.95,BR,1707362799
148,dzhankoy,45.7167,34.4,7.2,88,41,5.7,UA,1707362799
149,aripuana,-9.1667,-60.6333,24.16,88,93,0.55,BR,1707362800
150,box elder,41.5005,-112.8764,1.81,75,81,0.56,US,1707362800
151,nova vicosa,-17.8919,-39.3719,25.7,87,100,2.7,BR,1707362800
152,kingston,17.997,-76.7936,23.53,64,20,6.69,JM,1707362004
153,petropavlovsk-kamchatsky,53.0452,158.6483,-6.67,80,75,2.0,RU,1707362800
154,tsetserleg,47.475,101.4542,-14.92,69,5,2.1,MN,1707362800
155,sandnessjoen,66.0217,12.6316,-6.71,57,97,3.49,NO,1707362801
156,tsiombe,-25.3,45.4833,21.71,87,1,0.84,MG,1707362801
157,mhamid,29.82,-5.72,12.51,25,87,1.35,MA,1707362801
158,barcelos,41.5388,-8.6151,16.08,84,100,8.05,PT,1707362801
159,wailua homesteads,22.0669,-159.378,26.24,73,100,6.69,US,1707362801
160,kodiak,57.79,-152.4072,0.73,86,100,2.57,US,1707362801
161,udachny,66.4167,112.4,-26.42,75,100,1.21,RU,1707362801
162,turpan,42.9333,89.1667,3.06,41,65,0.41,CN,1707362802
163,cabo san lucas,22.8909,-109.9124,21.95,65,20,4.47,MX,1707362568
164,bemidji,47.4736,-94.8803,6.87,82,75,5.14,US,1707362626
165,zdvinsk,54.7021,78.661,-6.7,90,70,5.51,RU,1707362802
166,albany,42.6001,-73.9662,1.52,67,38,0.72,US,1707362698
167,rongelap,11.1635,166.8941,26.41,75,100,9.32,MH,1707362802
168,la leonesa,-27.0379,-58.7035,29.01,73,49,2.19,AR,1707362803
169,hawaiian paradise park,19.5933,-154.9731,23.35,81,100,2.06,US,1707362803
170,crystal city,28.6775,-99.8281,20.06,56,0,5.66,US,1707362803
171,dunedin,-45.8742,170.5036,19.89,40,29,5.36,NZ,1707362803
172,aykhal,66.0,111.5,-23.95,99,100,1.83,RU,1707362803
173,rikaze,29.25,88.8833,0.5,17,0,1.33,CN,1707362803
174,meadow lakes,61.6247,-149.6011,-0.21,72,0,2.57,US,1707362804
175,imbituba,-28.24,-48.6703,23.67,93,50,1.85,BR,1707362804
176,gadzhiyevo,69.2551,33.3362,-23.78,100,92,3.44,RU,1707362804
177,ulaangom,49.9811,92.0667,-28.72,98,99,0.53,MN,1707362804
178,ube,33.9431,131.2511,9.02,61,75,2.57,JP,1707362795
179,sredniy,52.89,103.5,-16.62,96,95,1.25,RU,1707362804
180,klyuchi,52.2667,79.1667,-7.38,87,11,4.38,RU,1707362805
181,hamilton,39.1834,-84.5333,10.35,53,0,3.6,US,1707362788
182,papao,-17.75,-149.55,28.82,90,100,16.68,PF,1707362805
183,daman,20.4167,72.85,22.7,53,52,4.29,IN,1707362805
184,taoudenni,22.6783,-3.9836,16.89,18,36,4.34,ML,1707362805
185,cockburn town,21.4612,-71.1419,23.11,72,9,7.59,TC,1707362805
186,khandyga,62.6667,135.6,-35.72,95,76,0.1,RU,1707362805
187,anna regina,7.2644,-58.5077,26.36,83,3,5.37,GY,1707362806
188,anadyr,64.75,177.4833,-16.72,85,75,9.0,RU,1707362806
189,ostashkov,57.1467,33.1075,-15.04,97,100,1.65,RU,1707362806
190,tralee,52.2704,-9.7026,5.62,92,100,7.98,IE,1707362806
191,turbat,26.0023,63.044,18.42,71,45,2.49,PK,1707362806
192,at taraf,25.3628,49.725,11.3,59,0,2.92,SA,1707362807
193,north platte,41.1239,-100.7654,11.94,67,75,6.69,US,1707362775
194,sharanga,57.1775,46.5396,-14.89,98,100,1.14,RU,1707362807
195,san julian,21.0167,-102.1667,16.56,24,80,2.38,MX,1707362807
196,hameenlinna,60.996,24.4643,-19.36,100,80,1.27,FI,1707362807
197,al kharijah,25.4514,30.5464,12.09,52,0,3.02,EG,1707362807
198,flying fish cove,-10.4217,105.6791,28.82,74,75,3.6,CX,1707362807
199,dawson creek,55.7666,-120.2362,-7.2,79,20,0.0,CA,1707362808
200,kailua-kona,19.6406,-155.9956,25.98,79,40,2.57,US,1707362592
201,lodwar,3.1191,35.5973,29.76,44,56,3.01,KE,1707362808
202,baikonur,45.6167,63.3167,-1.41,94,44,5.23,KZ,1707362808
203,margaret river,-33.95,115.0667,26.73,40,0,2.11,AU,1707362730
204,popondetta,-8.7537,148.2534,31.45,60,100,2.8,PG,1707362808
205,tolanaro,-25.0319,46.9987,24.04,88,40,1.03,MG,1707362809
206,sinabang,2.4803,96.3801,29.19,69,69,1.09,ID,1707362809
207,san ignacio,17.1561,-89.0714,16.08,94,0,0.0,BZ,1707362809
208,kurchatov,51.6601,35.6521,-1.77,86,80,5.95,RU,1707362809
209,kerikeri,-35.2268,173.9474,24.83,60,20,3.68,NZ,1707362809
210,iskateley,67.6803,53.1512,-17.21,96,100,5.81,RU,1707362809
211,dudinka,69.4058,86.1778,-26.85,97,24,1.79,RU,1707362706
212,invercargill,-46.4,168.35,14.45,78,68,7.6,NZ,1707362810
213,esquel,-42.9,-71.3167,8.03,76,42,3.18,AR,1707362548
214,sao felix do xingu,-6.6447,-51.995,23.27,95,67,0.61,BR,1707362810
215,olinda,-8.0089,-34.8553,28.85,79,40,4.12,BR,1707362810
216,tazovsky,67.4667,78.7,-7.69,95,100,5.42,RU,1707362811
217,chibougamau,49.9168,-74.3659,-2.21,93,100,1.03,CA,1707362811
218,baganga,7.5739,126.56,26.66,81,91,1.31,PH,1707362596
219,arno,60.1167,18.6333,-4.56,76,28,1.26,SE,1707362811
220,leh,34.1667,77.5833,-22.29,71,8,1.74,IN,1707362811
221,truro,50.2653,-5.0544,11.6,100,75,5.14,GB,1707362680
222,jaraiz de la vera,40.0601,-5.7543,10.64,93,98,0.89,ES,1707362811
223,carnarvon,-24.8667,113.6333,32.73,40,0,2.17,AU,1707362812
224,nemuro,43.3236,145.575,-2.9,75,73,3.93,JP,1707362682
225,sept-iles,50.2001,-66.3821,-8.0,86,0,1.54,CA,1707362812
226,nuku'alofa,-21.1333,-175.2,31.19,74,20,5.14,TO,1707362812
227,torghay,49.6339,63.4981,-6.49,78,73,10.78,KZ,1707362812
228,katsuren-haebaru,26.3369,127.8719,18.43,80,100,7.2,JP,1707362813
229,ola,59.5833,151.2833,-17.99,78,14,2.26,RU,1707362813
230,vegreville,53.5001,-112.0518,-4.61,93,100,2.06,CA,1707362813
231,mount pearl,47.5166,-52.7813,-2.25,92,100,7.2,CA,1707362813
232,whitehorse,60.7161,-135.0538,-14.57,79,40,2.57,CA,1707362801
233,puerto lempira,15.2667,-83.7667,23.88,68,86,5.19,HN,1707362813
234,diamantino,-14.4086,-56.4461,26.34,67,100,1.3,BR,1707362814
235,howard springs,-12.497,131.047,31.66,78,86,2.36,AU,1707362814
236,faget,45.85,22.1833,9.11,84,100,2.29,RO,1707362814
237,surabaya,-7.2492,112.7508,29.97,52,20,3.09,ID,1707362814
238,extrema,-22.8547,-46.3183,18.41,93,100,1.36,BR,1707362778
239,ghanzi,-21.5667,21.7833,23.09,59,53,2.94,BW,1707362814
240,colonia,50.9333,6.95,4.97,91,100,2.06,DE,1707362551
241,ostersund,63.1792,14.6357,-17.75,92,86,1.54,SE,1707362815
242,conduaga,8.862,117.4893,29.88,62,34,2.04,PH,1707362815
243,moree,-29.4667,149.85,30.0,45,73,4.64,AU,1707362815
244,olivenza,38.6832,-7.103,10.73,93,97,2.92,ES,1707362815
245,cidreira,-30.1811,-50.2056,23.68,89,99,5.89,BR,1707362815
246,susuman,62.7833,148.1667,-28.2,98,97,0.59,RU,1707362815
247,maxixe,-23.8597,35.3472,23.32,83,25,0.34,MZ,1707362815
248,stornoway,58.2093,-6.3865,-1.02,88,40,2.06,GB,1707362816
249,vigan,17.5747,120.3869,28.85,95,5,2.33,PH,1707362816
250,bodaybo,57.8506,114.1933,-11.54,94,100,0.71,RU,1707362816
251,makinsk,52.6292,70.4169,-6.61,92,100,11.93,KZ,1707362816
252,aasiaat,68.7098,-52.8699,-20.11,97,100,0.99,GL,1707362816
253,betio village,1.358,172.9211,31.02,75,88,8.45,KI,1707362816
254,ekibastuz,51.6667,75.3667,-5.68,79,9,8.79,KZ,1707362816
255,happy valley-goose bay,53.3168,-60.3315,-9.83,79,100,1.03,CA,1707362817
256,praia da vitoria,38.7333,-27.0667,16.14,77,20,9.09,PT,1707362817
257,alta,69.9689,23.2717,-17.12,74,100,17.43,NO,1707362817
258,hilo,19.7297,-155.09,23.47,79,100,2.68,US,1707362639
259,shortandy,51.7006,70.9994,-6.45,92,100,11.65,KZ,1707362818
260,vadso,70.0744,29.7487,-14.91,85,100,2.06,NO,1707362818
261,merizo village,13.2658,144.6691,31.31,71,88,6.68,GU,1707362818
262,tuyen quang,21.8233,105.2181,14.1,81,100,1.45,VN,1707362818
263,coos bay,43.3665,-124.2179,7.74,100,75,0.0,US,1707362818
264,motca,47.25,26.6167,11.14,62,96,5.05,RO,1707362819
265,zeya,53.75,127.2667,-11.95,72,98,1.75,RU,1707362819
266,ust'-barguzin,53.45,108.9833,-12.91,91,67,0.41,RU,1707362819
267,montepuez,-13.1256,38.9997,21.67,96,96,1.41,MZ,1707362819
268,kavaratti,10.5669,72.642,27.86,73,100,2.41,IN,1707362819
269,strezhevoy,60.7333,77.5889,-3.91,95,100,4.02,RU,1707362521
270,mil'kovo,55.6078,37.7956,-12.92,94,98,4.85,RU,1707362819
271,deniliquin,-35.5333,144.9667,30.6,29,0,2.32,AU,1707362820
272,west island,-12.1568,96.8225,25.99,94,75,5.14,CC,1707362820
273,aitape,-3.1374,142.3475,29.39,72,87,4.77,PG,1707362820
274,aberdeen,57.1437,-2.0981,-2.48,80,9,2.06,GB,1707362733
275,bakchar,57.0186,82.0711,-4.58,88,100,3.84,RU,1707362820
276,souillac,-20.5167,57.5167,27.21,83,40,5.14,MU,1707362820
277,pumiao,22.75,108.4833,10.22,76,100,2.9,CN,1707362821
278,saldanha,-33.0117,17.9442,17.03,85,15,4.2,ZA,1707362821
279,new norfolk,-42.7826,147.0587,25.4,26,0,0.46,AU,1707362821
280,tura,25.5198,90.2201,17.87,31,0,1.63,IN,1707362821
281,al jawf,29.5,38.75,9.52,56,0,3.95,SA,1707362821
282,nalut,30.3333,10.85,9.2,43,0,2.28,LY,1707362822
283,vanino,49.0869,140.2543,-10.6,68,100,1.6,RU,1707362822
284,krapivinskiy,54.9992,86.8133,-12.39,96,99,2.01,RU,1707362822
285,newman,37.3138,-121.0208,8.13,91,76,3.22,US,1707362793
286,caleta de carquin,-11.0925,-77.6267,24.86,81,31,3.88,PE,1707362822
287,havsa,41.549,26.8221,11.91,94,100,4.42,TR,1707362823
288,ketchikan,55.3422,-131.6461,1.99,69,100,1.54,US,1707362823
289,pailon,-17.65,-62.75,26.5,56,97,3.71,BO,1707362823
290,kabinda,-6.1333,24.4833,19.52,88,100,0.8,CD,1707362823
291,fuglafjordur,62.244,-6.814,-0.74,65,98,9.65,FO,1707362823
292,sanctuary point,-35.1114,150.629,22.64,50,77,4.3,AU,1707362823
293,remire-montjoly,4.9167,-52.2667,28.02,74,75,4.63,GF,1707362824
294,rudnyy,52.9594,63.1206,-10.87,88,96,7.69,KZ,1707362824
295,guerrero negro,27.9769,-114.0611,15.4,63,3,4.92,MX,1707362824
296,puerto ayora,-0.7393,-90.3518,26.98,94,98,0.89,EC,1707362824
297,bredasdorp,-34.5322,20.0403,18.09,77,58,2.82,ZA,1707362825
298,hovd,48.0056,91.6419,-18.74,89,31,0.57,MN,1707362825
299,huicheng,23.0385,116.2899,14.02,73,96,4.72,CN,1707362825
300,portland,45.5234,-122.6762,7.97,85,75,2.06,US,1707362360
301,gamay,12.3854,125.2979,27.31,75,28,3.31,PH,1707362825
302,utrik,11.2278,169.8474,26.4,82,100,9.39,MH,1707362826
303,isangel,-19.55,169.2667,30.06,79,40,4.12,VU,1707362568
304,annaba,36.9,7.7667,9.98,81,20,4.63,DZ,1707362826
305,revda,56.801,59.9303,-19.93,100,99,0.53,RU,1707362826
306,persembe,41.0656,37.7714,8.68,67,92,3.21,TR,1707362826
307,gokwe,-18.2048,28.9349,19.12,82,55,0.95,ZW,1707362826
308,paratinga,-12.6906,-43.1842,22.1,93,100,0.64,BR,1707362826
309,huinan,42.6225,126.2614,-9.62,82,9,1.04,CN,1707362827
310,ponta delgada,37.7333,-25.6667,18.44,82,75,11.83,PT,1707362827
311,alesund,62.4723,6.1549,-2.17,100,75,5.14,NO,1707362827
312,richfield,44.8833,-93.283,9.64,66,100,7.2,US,1707362827
313,laibin,23.7,109.2667,5.42,75,100,4.39,CN,1707362828
314,balakhta,55.38,91.6,-18.88,98,96,0.84,RU,1707362828
315,bathsheba,13.2167,-59.5167,27.34,83,20,6.69,BB,1707362828
316,kalmunai,7.4167,81.8167,26.01,72,62,2.42,LK,1707362828
317,itaituba,-4.2761,-55.9836,23.76,99,99,0.54,BR,1707362753
318,pak phanang,8.3511,100.202,32.24,67,0,1.88,TH,1707362828
319,namsos,64.4662,11.4957,-3.97,79,75,4.63,NO,1707362829
320,miass,55.045,60.1083,-19.78,100,10,1.79,RU,1707362829
321,port colborne,42.9001,-79.2329,2.21,62,94,1.06,CA,1707362829
322,kuandian,40.7286,124.7847,-4.8,65,2,0.89,CN,1707362829
323,luderitz,-26.6481,15.1594,17.78,74,92,4.77,NA,1707362829
324,nadym,65.5333,72.5167,-6.81,89,99,7.83,RU,1707362830
325,al ghayzah,16.2079,52.176,20.91,37,6,3.48,YE,1707362830
326,severo-yeniseyskiy,60.3725,93.0408,-12.46,99,98,1.34,RU,1707362830
327,volchikha,52.0333,80.3833,-3.9,74,87,6.26,RU,1707362830
328,tyukalinsk,55.8732,72.1967,-10.25,93,39,6.8,RU,1707362830
329,kutum,14.2,24.6667,12.35,26,82,3.05,SD,1707362830
330,mangrol,21.1167,70.1167,21.48,57,84,5.58,IN,1707362831
331,malango,-2.9627,119.9001,26.42,65,99,0.86,ID,1707362831
332,afaahiti,-17.75,-149.2833,27.93,88,100,14.82,PF,1707362831
333,katumba,-9.2333,33.6167,17.17,86,75,2.16,TZ,1707362831
334,bantogon,6.5333,124.0333,27.37,76,96,1.86,PH,1707362832
335,el paso,31.8001,-106.2005,10.81,44,20,12.35,US,1707362832
336,trairi,-3.2778,-39.2689,27.2,80,67,4.36,BR,1707362594
337,ornskoldsvik,63.2909,18.7153,-8.47,92,100,1.03,SE,1707362832
338,gatton,-27.55,152.2833,30.91,61,75,4.7,AU,1707362832
339,mildura,-34.2,142.15,30.04,32,0,4.54,AU,1707362833
340,laguna,38.421,-121.4238,8.49,92,100,4.12,US,1707362721
341,ilulissat,69.2167,-51.1,-11.99,67,100,7.72,GL,1707362833
342,karratha,-20.7377,116.8463,38.88,14,16,5.0,AU,1707362833
343,jamestown,42.097,-79.2353,2.8,51,0,2.06,US,1707362636
344,sur,22.5667,59.5289,21.38,66,100,2.21,OM,1707362833
345,castries,13.9957,-61.0061,26.04,87,42,4.56,LC,1707362834
346,bandarbeyla,9.4942,50.8122,23.94,77,89,6.24,SO,1707362834
347,irymple,-34.25,142.1667,30.05,32,0,0.45,AU,1707362834
348,alofi,-19.0595,-169.9187,30.94,66,75,3.6,NU,1707362834
349,callao,-12.0667,-77.15,27.62,69,0,6.17,PE,1707362834
350,haiku-pauwela,20.9219,-156.3051,25.01,68,20,9.77,US,1707362834
351,puerto escondido,15.85,-97.0667,24.33,81,1,1.26,MX,1707362835
352,brezina,33.0989,1.2608,7.73,30,0,1.34,DZ,1707362835
353,newnham,-41.3833,147.1333,23.53,38,0,8.23,AU,1707362835
354,ashkelon,31.6693,34.5715,10.46,75,0,1.41,IL,1707362835
355,tshabong,-26.05,22.45,25.45,32,96,2.99,BW,1707362835
356,xining,36.6167,101.7667,-6.55,70,33,0.95,CN,1707362836
357,westport,41.1415,-73.3579,3.16,73,40,0.0,US,1707362836
358,mangawan,24.6833,81.55,14.79,34,90,3.51,IN,1707362836
359,san pedro,14.35,121.0167,29.64,68,40,3.6,PH,1707362748
360,antsiranana,-12.2787,49.2917,24.42,88,40,0.0,MG,1707362836
361,lihue,21.9789,-159.3672,26.58,72,100,6.69,US,1707362837
362,bayji,34.9311,43.487,13.05,65,87,2.55,IQ,1707362837
363,fale old settlement,-9.3852,-171.2468,28.06,81,100,7.25,TK,1707362837
364,st. john's,47.5649,-52.7093,-1.79,92,100,7.2,CA,1707362837
365,puerto baquerizo moreno,-0.9,-89.6,25.7,82,73,4.85,EC,1707362837
366,nikol'sk,53.7189,46.0712,-1.1,92,100,7.67,RU,1707362837
367,masterton,-40.9597,175.6575,18.82,45,55,3.54,NZ,1707362838
368,sisimiut,66.9395,-53.6735,-14.14,96,100,4.66,GL,1707362838
369,linevo,54.4589,83.3764,-2.83,92,100,5.86,RU,1707362838
370,asaba,6.2006,6.7338,22.71,50,11,1.51,NG,1707362838
371,palmer,42.1584,-72.3287,1.43,71,40,0.0,US,1707362839
372,alice springs,-23.7,133.8833,32.9,13,12,8.23,AU,1707362785
373,saint-pierre,-21.3393,55.4781,25.82,73,100,2.06,RE,1707362839
374,korla,41.7597,86.1469,-4.17,80,10,2.34,CN,1707362839
375,nazarabad,35.9521,50.6075,2.45,59,0,2.13,IR,1707362839
376,shimoda,34.6667,138.95,11.2,65,58,1.63,JP,1707362839
377,luwuk,-0.9516,122.7875,30.53,67,100,1.44,ID,1707362840
378,kamloops,50.6665,-120.3192,3.1,66,75,4.63,CA,1707362704
379,sungai penuh,-2.0833,101.3833,25.13,65,100,1.04,ID,1707362840
380,geraldton,-28.7667,114.6,41.23,9,0,9.77,AU,1707362840
381,olhao,37.0286,-7.8411,16.16,88,20,3.6,PT,1707362840
382,kirakira,-10.4544,161.9205,30.12,74,100,8.29,SB,1707362840
383,mogocha,53.7333,119.7667,-12.44,75,25,0.53,RU,1707362841
384,ji'an,27.1172,114.9793,3.06,91,100,3.13,CN,1707362841
385,boguchany,58.3814,97.4531,-12.57,97,99,0.54,RU,1707362841
386,antonio enes,-16.2325,39.9086,24.78,91,52,2.08,MZ,1707362841
387,kirishi,59.4471,32.0205,-23.87,98,54,1.43,RU,1707362842
388,bol'shoye murashkino,55.7826,44.7754,-11.76,96,100,3.99,RU,1707362842
389,sandpoint,48.2766,-116.5533,4.29,87,100,0.0,US,1707362842
390,weno,7.4515,151.8468,30.97,70,75,6.17,FM,1707362842
391,chinde,26.8418,88.0763,6.17,56,0,2.02,NP,1707362842
392,kone,-21.0595,164.8658,25.14,86,100,2.39,NC,1707362842
393,canela,-29.3656,-50.8156,19.24,97,84,1.45,BR,1707362843
394,fada,9.5667,8.3,17.84,28,15,3.1,NG,1707362843
395,magadan,59.5667,150.8,-17.92,75,12,1.77,RU,1707362729
396,corn island,12.1694,-83.0418,26.16,69,26,9.04,NI,1707362843
397,luganville,-15.5333,167.1667,30.17,69,93,2.09,VU,1707362844
398,maragogi,-9.0122,-35.2225,26.69,80,93,3.62,BR,1707362844
399,prado,-17.3411,-39.2208,25.45,88,99,2.43,BR,1707362844
400,porto novo,6.4965,2.6036,24.9,57,8,0.19,BJ,1707362844
401,mombetsu,44.3525,143.3525,-2.99,63,75,2.57,JP,1707362844
402,bentiu,9.2333,29.8333,21.37,23,21,2.12,SS,1707362844
403,pandan,14.0453,124.1694,28.23,66,5,1.23,PH,1707362845
404,kenai,60.5544,-151.2583,-2.95,93,0,6.17,US,1707362727
405,araguaina,-7.1911,-48.2072,23.67,92,99,1.44,BR,1707362845
406,bila tserkva,49.8094,30.1121,2.81,83,100,6.8,UA,1707362845
407,enewetak,11.3474,162.3373,26.65,80,100,8.69,MH,1707362845
408,walvis bay,-22.9575,14.5053,19.53,82,100,0.0,NA,1707362845
409,sam roi yot,12.2708,99.872,32.2,27,76,1.06,TH,1707362846
410,kurlovo,55.4325,40.4854,-13.03,93,100,4.97,RU,1707362846
411,camana,-16.6228,-72.7111,24.85,85,77,1.11,PE,1707362846
412,yermolayevo,52.7167,55.8,-9.93,95,100,4.39,RU,1707362846
413,al bawiti,28.3492,28.8659,11.36,61,0,1.91,EG,1707362847
414,argo,37.6333,22.7333,10.44,53,100,2.29,GR,1707362719
415,choibalsan,48.0667,114.5,-15.88,81,82,2.9,MN,1707362847
416,tateyama,34.9833,139.8667,8.86,69,89,4.33,JP,1707362847
417,labuan,5.2767,115.2417,29.2,79,20,1.03,MY,1707362848
418,desaguadero,-16.5656,-69.0417,8.2,75,99,1.95,PE,1707362595
419,greenville,35.6127,-77.3663,2.85,89,0,0.0,US,1707362737
420,suva,-18.1416,178.4415,30.71,62,40,2.57,FJ,1707362557
421,stanthorpe,-28.6667,151.95,18.8,90,98,5.81,AU,1707362848
422,vilhena,-12.7406,-60.1458,22.89,85,98,1.35,BR,1707362848
423,wewak,-3.5534,143.6268,29.19,72,99,6.31,PG,1707362848
424,palapye,-22.546,27.1251,25.21,38,91,1.99,BW,1707362849
425,el alto,-4.2714,-81.2147,24.71,82,84,5.25,PE,1707362594
426,paphos,34.7667,32.4167,14.02,82,100,2.06,CY,1707362849
427,mata-utu,-13.2816,-176.1745,28.97,81,100,8.77,WF,1707362849
428,pyt-yakh,60.7499,72.8582,-5.19,95,100,4.1,RU,1707362849
429,undurkhaan,47.3194,110.6556,-19.84,92,93,2.36,MN,1707362849
430,zahedan,29.4963,60.8629,0.95,34,0,2.06,IR,1707362850
431,prince george,53.9166,-122.753,-2.08,94,100,0.89,CA,1707362850
432,la'ie,21.6477,-157.9253,26.98,72,7,4.02,US,1707362850
433,blackwater,-23.5833,148.8833,33.77,36,12,7.34,AU,1707362850
434,zhezqazghan,47.7833,67.7667,-9.68,92,75,11.0,KZ,1707362850
435,parauapebas,-6.0675,-49.9022,23.26,98,60,0.47,BR,1707362850
436,ad douiem,14.0012,32.3116,18.49,20,99,4.67,SD,1707362851
437,nova xavantina,-14.6667,-52.35,24.22,86,100,0.9,BR,1707362851
438,velikiy ustyug,60.7644,46.3106,-14.78,96,100,2.68,RU,1707362851
439,constantia,44.1833,28.65,8.38,74,100,3.84,RO,1707362851
440,egilsstadir,65.2653,-14.3948,-5.05,63,75,2.06,IS,1707362851
441,vila velha,-20.3297,-40.2925,25.97,95,20,2.57,BR,1707362687
442,ripley,53.0333,-1.4,3.49,90,100,2.5,GB,1707362852
443,timaru,-44.4,171.25,19.48,36,38,4.02,NZ,1707362852
444,pacocha,-17.5833,-71.3333,23.79,86,13,1.36,PE,1707362852
445,hola,51.5377,23.1902,1.1,81,100,3.73,PL,1707362852
446,port moresby,-9.4431,147.1797,27.68,78,75,7.72,PG,1707362852
447,ta`u,-14.2336,-169.5144,28.43,80,100,8.94,AS,1707362852
448,kingscliff,-28.2667,153.5667,30.41,65,75,6.69,AU,1707362852
449,morehead city,34.7229,-76.726,5.58,84,0,3.09,US,1707362853
450,shenjiamen,29.9576,122.298,4.36,70,100,7.34,CN,1707362853
451,prince rupert,54.3161,-130.3201,2.83,93,100,4.12,CA,1707362853
452,pizarro,4.9533,-77.366,26.08,88,33,2.85,CO,1707362853
453,kegeyli shahar,42.7767,59.6078,2.05,89,41,3.46,UZ,1707362853
454,fortuna,40.5982,-124.1573,7.03,94,20,0.0,US,1707362854
455,huai'an,33.5886,119.0192,3.34,62,98,1.85,CN,1707362854
456,san jose del cabo,23.0589,-109.6977,21.94,65,0,4.63,MX,1707362854
457,saint-francois,46.4154,3.9054,10.92,83,100,2.57,FR,1707362854
458,chuchar-kana mandi,31.75,73.8,8.99,36,0,3.31,PK,1707362854
459,tongging,2.8969,98.5262,25.49,64,82,1.22,ID,1707362854
460,beira,-19.8436,34.8389,26.05,89,20,1.54,MZ,1707362855
461,dakhla,23.6848,-15.958,20.26,40,0,3.8,EH,1707362855
462,dhuusamarreeb,5.535,46.3861,22.35,88,71,5.67,SO,1707362855
463,ravar,31.2656,56.8055,6.64,20,0,2.48,IR,1707362855
464,naze,28.3667,129.4833,12.51,81,100,5.78,JP,1707362855
465,lata,40.1629,-8.3327,16.01,84,100,3.84,PT,1707362856
466,novaya igirma,57.1334,103.9112,-10.0,93,100,1.39,RU,1707362856
467,vorgashor,67.5833,63.95,-7.11,87,100,5.52,RU,1707362856
468,cururupu,-1.8283,-44.8683,24.35,97,21,1.29,BR,1707362808
469,tvoroyri,61.5556,-6.8111,2.61,59,59,8.78,FO,1707362857
470,tyukhtet,56.5389,89.3011,-10.67,83,53,4.32,RU,1707362857
471,francistown,-21.17,27.5079,24.23,55,13,3.16,BW,1707362857
472,plaza huincul,-38.926,-69.2086,21.19,10,87,4.92,AR,1707362857
473,sadovoye,47.7764,44.5089,5.18,83,74,9.61,RU,1707362857
474,bahia blanca,-38.7196,-62.2724,22.84,62,13,6.42,AR,1707362814
475,mount gambier,-37.8333,140.7667,23.4,38,0,4.37,AU,1707362858
476,emerald,-23.5333,148.1667,35.16,30,6,7.61,AU,1707362764
477,alagapuram,11.8871,78.9176,24.65,58,75,1.21,IN,1707362858
478,richards bay,-28.783,32.0377,23.92,83,80,3.52,ZA,1707362858
479,buka,40.8108,69.1986,6.84,67,100,0.52,UZ,1707362858
480,victorica,-36.2151,-65.4359,23.37,72,27,6.43,AR,1707362859
481,sultanah,24.4926,39.5857,17.25,25,0,2.57,SA,1707362859
482,fort st. john,56.2499,-120.8529,-8.06,86,100,1.03,CA,1707362631
483,oppdal,62.5943,9.6912,-14.43,52,73,4.45,NO,1707362859
484,igarka,67.4667,86.5833,-20.43,99,96,2.62,RU,1707362859
485,owase,34.0667,136.2,10.52,42,32,0.56,JP,1707362859
486,kourou,5.1552,-52.6478,28.03,80,94,3.6,GF,1707362860
487,mariinsk,56.2139,87.7472,-14.91,92,91,2.11,RU,1707362860
488,novodvinsk,64.4165,40.8122,-29.14,100,99,2.3,RU,1707362860
489,porto belo,-27.1578,-48.5531,26.97,87,54,1.85,BR,1707362860
490,burang,30.25,81.1667,-11.41,66,15,3.61,CN,1707362860
491,manokwari,-0.8667,134.0833,28.02,76,94,2.49,ID,1707362860
492,ippy,6.2679,21.2247,21.92,33,36,1.71,CF,1707362860
493,san luis de la loma,17.2706,-100.8939,24.5,77,0,1.91,MX,1707362860
494,mitchell,43.7094,-98.0298,8.74,76,0,8.23,US,1707362861
495,nguigmi,14.2495,13.1092,15.9,29,11,5.64,NE,1707362861
496,saline,34.6501,-92.6835,12.6,69,96,2.99,US,1707362861
497,vila franca do campo,37.7167,-25.4333,18.27,99,89,8.55,PT,1707362861
498,touros,-5.1989,-35.4608,26.75,81,41,4.66,BR,1707362861
499,khanty-mansiysk,61.0042,69.0019,-4.94,93,75,5.0,RU,1707362861
500,russas,-4.9403,-37.9758,26.5,84,83,4.2,BR,1707362798
501,karema,-6.8205,30.4389,20.99,87,33,1.2,TZ,1707362862
502,suntar,62.1444,117.6319,-29.82,99,98,1.03,RU,1707362862
503,slave lake,55.2834,-114.769,-5.01,86,100,1.54,CA,1707362862
504,malanje,-9.5402,16.341,17.36,95,99,0.42,AO,1707362862
505,brookings,44.3114,-96.7984,9.0,83,75,7.72,US,1707362839
506,olyokminsk,60.3736,120.4264,-26.24,96,98,0.6,RU,1707362863
507,bikaner,28.0167,73.3,13.82,42,97,1.68,IN,1707362863
508,san andres,12.5847,-81.7006,26.01,73,40,5.14,CO,1707362863
509,usinsk,65.9939,57.5281,-9.4,90,99,2.68,RU,1707362863
510,bykovo,55.6361,38.0803,-12.8,85,75,5.0,RU,1707362863
511,jinzhou,41.1078,121.1417,-1.77,31,6,3.24,CN,1707362863
512,solnechnyy,50.7214,136.6319,-13.59,86,100,1.3,RU,1707362864
513,wynyard,-41.0,145.7167,18.71,59,1,3.43,AU,1707362864
514,sassandra,4.95,-6.0833,25.76,82,10,0.82,CI,1707362864
515,tabuk,17.4189,121.4443,27.19,62,4,1.9,PH,1707362864
516,pisco,-13.7,-76.2167,24.45,88,0,5.14,PE,1707362864
517,anuradhapura,8.3565,80.4173,24.51,78,46,3.19,LK,1707362864
518,vernon,50.2581,-119.2691,3.2,91,100,0.51,CA,1707362865
519,patterson,37.4716,-121.1297,8.28,91,77,2.38,US,1707362865
520,bangassou,4.7413,22.8184,19.0,42,62,1.4,CF,1707362865
521,kholmsk,47.0511,142.0569,-5.68,88,100,1.9,RU,1707362865
522,yatou,37.15,122.3833,0.94,63,90,6.1,CN,1707362865
523,shingu,33.7333,135.9833,10.94,46,51,2.0,JP,1707362865
524,quellon,-43.1167,-73.6167,10.03,88,36,1.67,CL,1707362866
525,fort-shevchenko,44.5086,50.263,6.01,89,24,5.82,KZ,1707362866
526,sao joao da barra,-21.6403,-41.0511,24.96,89,100,1.97,BR,1707362866
527,derinkuyu,38.3751,34.7342,-0.69,85,22,3.31,TR,1707362866
528,tazacorte,28.629,-17.9293,19.53,21,0,3.58,ES,1707362866
529,miri,4.4148,114.0089,29.08,79,40,2.57,MY,1707362866
530,ayutinskiy,47.77,40.14,6.04,93,72,6.13,RU,1707362867
531,qarah zia' od din,38.8915,45.0255,-1.52,71,27,1.26,IR,1707362867
532,rabigh,22.7986,39.0349,22.71,53,8,3.29,SA,1707362867
533,saint george's,12.0564,-61.7485,27.82,83,75,8.23,GD,1707362867
534,naha,26.2125,127.6811,18.38,83,75,8.75,JP,1707362867
535,dasnapur,19.654,78.5121,22.96,39,33,4.87,IN,1707362867
536,inirida,3.8653,-67.9239,23.92,96,72,1.25,CO,1707362868
537,zapala,-38.8992,-70.0544,19.37,24,100,3.84,AR,1707362868
538,makoua,0.0069,15.6333,22.68,68,22,0.61,CG,1707362868
539,lashio,22.9333,97.75,20.12,50,0,0.58,MM,1707362868
540,shunyi,40.125,116.6453,2.97,18,0,2.0,CN,1707362868
541,pangai,-19.8,-174.35,30.06,79,75,3.09,TO,1707362868
542,pindiga,9.9833,10.9333,18.3,28,78,3.98,NG,1707362868
543,christchurch,-43.5333,172.6333,22.17,65,75,5.66,NZ,1707362796
544,ryotsu-minato,38.0833,138.4333,5.36,58,94,4.34,JP,1707362869
545,raduzhny,62.0961,77.475,-7.74,83,100,6.03,RU,1707362869
546,gua musang,4.8823,101.9644,29.49,67,45,1.18,MY,1707362869
547,huazhou,21.6333,110.5833,12.51,79,100,3.47,CN,1707362869
548,mili,6.0815,171.735,27.86,79,44,9.58,MH,1707362869
549,gunnison,38.7,-107.0673,-6.53,90,92,2.41,US,1707362870
550,mandera,3.9366,41.867,26.86,63,3,4.88,KE,1707362870
551,smirnykh,49.75,142.8333,-10.93,76,92,1.78,RU,1707362870
552,tromso,69.6496,18.957,-8.99,67,99,5.66,NO,1707362870
553,aswan,24.0934,32.907,14.0,53,0,3.66,EG,1707362870
554,pamandzi,-12.7967,45.2794,28.88,79,40,4.63,YT,1707362871
555,qeshm,26.9581,56.2719,12.94,57,0,2.65,IR,1707362871
556,yass,-34.8333,148.9167,25.01,52,3,1.34,AU,1707362871
557,fort pierce,27.4467,-80.3256,16.11,81,100,5.81,US,1707362583
558,west bay,19.3667,-81.4167,23.04,70,20,4.63,KY,1707362871
559,n'zeto,-7.2312,12.8666,26.85,87,100,3.03,AO,1707362871
560,changyon,38.2508,125.0961,1.95,45,2,4.43,KP,1707362872
561,berdigestyakh,62.0989,126.6992,-30.4,96,98,2.24,RU,1707362872
562,usogorsk,63.4106,48.6872,-14.63,96,100,3.72,RU,1707362872
563,san juan de miraflores,-12.1629,-76.9635,26.76,69,19,3.46,PE,1707362872
564,yelets,52.6237,38.5017,-7.51,87,92,8.06,RU,1707362872
565,galliano,29.4422,-90.2992,16.11,79,96,5.38,US,1707362872
566,mantyharju,61.4167,26.8833,-27.94,100,61,1.58,FI,1707362873
567,lys'va,58.1086,57.8053,-15.69,98,83,2.04,RU,1707362873
568,cariati,39.4922,16.9594,12.44,65,3,1.56,IT,1707362873
569,doctor alberto oviedo mota,32.2275,-115.1697,15.07,45,0,5.32,MX,1707362873
570,la ronge,55.1001,-105.2842,-8.86,86,100,3.09,CA,1707362873
571,pangody,65.85,74.4859,-5.16,93,99,7.26,RU,1707362874
572,inongo,-1.95,18.2667,23.92,83,99,1.41,CD,1707362874
573,mejit,10.2753,170.8646,26.74,80,77,8.69,MH,1707362874
574,najran,17.4924,44.1277,10.36,63,15,1.84,SA,1707362874
575,xiahu,26.6106,119.9483,7.71,85,100,5.72,CN,1707362874
576,bogatoye,53.0601,51.3325,-3.68,96,100,6.73,RU,1707362874
577,canatlan,24.5167,-104.7833,10.95,40,17,3.62,MX,1707362874
